Date,Price,Status,Build Year,URL,Adresse,Kort adresse,Kvdm,Latitude,Longitude,Kommune,Type
2016-02-11,2047500,"Solgt, Familiehandel",1952,https://www.boligsiden.dk/adresse/ilfordvej-6-2300-koebenhavn-s-01013260___6_______,Ilfordvej 6 2300 København S,Ilfordvej 6 2300,125.0,55.6391717,12.6017524,København,Villa
2018-03-27,1988634,"Solgt, Familiehandel",1976,https://www.boligsiden.dk/adresse/ved-damhussoeen-6-2720-vanloese-01018044___6_______,Ved Damhussøen 6 2720 Vanløse,Ved Damhussøen 6 2720,263.0,55.6774703,12.4796634,København,Villa
2020-06-15,6000000,"Solgt, Familiehandel",1924,https://www.boligsiden.dk/adresse/kastrupvej-124-2300-koebenhavn-s-01013600_124_______,Kastrupvej 124 2300 København S,Kastrupvej 124 2300,261.0,55.6494247,12.6209342,København,Villa
2021-01-29,2050000,"Solgt, Øvrigt",1965,https://www.boligsiden.dk/adresse/kaalagervej-33-2300-koebenhavn-s-01014084__33_______,Kålagervej 33 2300 København S,Kålagervej 33 2300,124.0,55.6385565,12.5949008,København,Villa
2017-02-01,3500000,"Solgt, Familiehandel",1974,https://www.boligsiden.dk/adresse/limfjordsvej-55-2720-vanloese-01014312__55_______,Limfjordsvej 55 2720 Vanløse,Limfjordsvej 55 2720,174.0,55.6940034,12.5035458,København,Villa
2019-03-14,1483690,"Solgt, Familiehandel",1914,https://www.boligsiden.dk/adresse/eschrichtsvej-19-2500-valby-01011660__19_______,Eschrichtsvej 19 2500 Valby,Eschrichtsvej 19 2500,177.0,55.662176,12.5052344,København,Villa
2017-05-11,2567000,"Solgt, Familiehandel",2009,https://www.boligsiden.dk/adresse/stenrosevej-1a-2300-koebenhavn-s-01016900__1a_______,Stenrosevej 1A 2300 København S,Stenrosevej 1A 2300,170.0,55.6400308,12.6082714,København,Villa
2015-05-11,1500000,"Solgt, Øvrigt""}]",2022,https://www.boligsiden.dk/adresse/kornskyldvej-88-2300-koebenhavn-s-01013912__88_______,Kornskyldvej 88 2300 København S,Kornskyldvej 88 2300,186.0,55.6314146,12.585963,København,Villa
2022-01-20,704500,"Solgt, Familiehandel",1939,https://www.boligsiden.dk/adresse/aertebjergvej-23-2700-broenshoej-01018524__23_______,Ærtebjergvej 23 2700 Brønshøj,Ærtebjergvej 23 2700,70.0,55.71402209999999,12.4717317,København,Villa
2020-02-26,1130000,"Solgt, Familiehandel",1927,https://www.boligsiden.dk/adresse/slotsherrensvej-14-2720-vanloese-01016600__14_______,Slotsherrensvej 14 2720 Vanløse,Slotsherrensvej 14 2720,130.0,55.6952887,12.4911,København,Villa
2016-02-24,1130000,"Solgt, Familiehandel",1927,https://www.boligsiden.dk/adresse/slotsherrensvej-14-2720-vanloese-01016600__14_______,Slotsherrensvej 14 2720 Vanløse,Slotsherrensvej 14 2720,130.0,55.6952887,12.4911,København,Villa
2018-01-02,1660565,"Solgt, Øvrigt",1931,https://www.boligsiden.dk/adresse/genuavej-13-2300-koebenhavn-s-01012168__13_______,Genuavej 13 2300 København S,Genuavej 13 2300,106.0,55.6593722,12.6236448,København,Villa
2017-10-06,2700000,"Solgt, Øvrigt",1933,https://www.boligsiden.dk/adresse/havdrupvej-73-2700-broenshoej-01012684__73_______,Havdrupvej 73 2700 Brønshøj,Havdrupvej 73 2700,130.0,55.6998332,12.4893766,København,Villa
2020-06-04,1877500,"Solgt, Familiehandel",1929,https://www.boligsiden.dk/adresse/naesbyholmvej-35-2700-broenshoej-01015156__35_______,Næsbyholmvej 35 2700 Brønshøj,Næsbyholmvej 35 2700,118.0,55.6994219,12.5003021,København,Villa
2015-12-16,2295000,"Solgt, Familiehandel",1894,https://www.boligsiden.dk/adresse/heisesgade-1-2100-koebenhavn-oe-01012752___1_______,Heisesgade 1 2100 København Ø,Heisesgade 1 2100,186.0,55.7133434,12.5737033,København,Villa
2017-09-27,2082500,"Solgt, Familiehandel",2018,https://www.boligsiden.dk/adresse/ilfordvej-3-2300-koebenhavn-s-01013260___3_______,Ilfordvej 3 2300 København S,Ilfordvej 3 2300,170.0,55.6396399,12.6019114,København,Villa
2015-07-30,1041250,"Solgt, Familiehandel",2018,https://www.boligsiden.dk/adresse/ilfordvej-3-2300-koebenhavn-s-01013260___3_______,Ilfordvej 3 2300 København S,Ilfordvej 3 2300,170.0,55.6396399,12.6019114,København,Villa
2016-03-01,1200000,"Solgt, Øvrigt",1936,https://www.boligsiden.dk/adresse/lyngvigvej-15-2720-vanloese-01014484__15_______,Lyngvigvej 15 2720 Vanløse,Lyngvigvej 15 2720,100.0,55.6908092,12.4733139,København,Villa
2016-07-22,2143200,"Solgt, Øvrigt",1911,https://www.boligsiden.dk/adresse/hvedevej-6-2700-broenshoej-01013108___6_______,Hvedevej 6 2700 Brønshøj,Hvedevej 6 2700,116.0,55.7073219,12.4960871,København,Villa
2017-12-05,795417,"Solgt, Familiehandel",1932,https://www.boligsiden.dk/adresse/skippingevej-17-2700-broenshoej-01016468__17_______,Skippingevej 17 2700 Brønshøj,Skippingevej 17 2700,127.0,55.7011636,12.4807472,København,Villa
2017-06-30,107100,"Solgt, Familiehandel",1954,https://www.boligsiden.dk/adresse/dyssevaenget-66-2700-broenshoej-01011400__66_______,Dyssevænget 66 2700 Brønshøj,Dyssevænget 66 2700,99.0,55.7071012,12.4654408,København,Villa
2015-09-29,321300,"Solgt, Familiehandel",1954,https://www.boligsiden.dk/adresse/dyssevaenget-66-2700-broenshoej-01011400__66_______,Dyssevænget 66 2700 Brønshøj,Dyssevænget 66 2700,99.0,55.7071012,12.4654408,København,Villa
2015-11-10,2216500,"Solgt, Familiehandel",1935,https://www.boligsiden.dk/adresse/lundsfrydvej-18-2500-valby-01014440__18_______,Lundsfrydvej 18 2500 Valby,Lundsfrydvej 18 2500,112.0,55.6595622,12.4896532,København,Villa
2015-12-16,2024316,"Solgt, Øvrigt",1928,https://www.boligsiden.dk/adresse/stenmaglevej-8-2700-broenshoej-01016892___8_______,Stenmaglevej 8 2700 Brønshøj,Stenmaglevej 8 2700,169.0,55.7049037,12.4697197,København,Villa
2016-04-15,3200000,"Solgt, Øvrigt",1935,https://www.boligsiden.dk/adresse/wibrandtsvej-98-2300-koebenhavn-s-01018296__98_______,Wibrandtsvej 98 2300 København S,Wibrandtsvej 98 2300,220.0,55.6479906,12.6321418,København,Villa
2019-07-31,6000000,"Solgt, Øvrigt",1927,https://www.boligsiden.dk/adresse/langvaddam-1-2500-valby-01014164___1_______,Langvaddam 1 2500 Valby,Langvaddam 1 2500,220.0,55.6746139,12.4924157,København,Villa
2015-06-17,3500000,"Solgt, Øvrigt",1927,https://www.boligsiden.dk/adresse/langvaddam-1-2500-valby-01014164___1_______,Langvaddam 1 2500 Valby,Langvaddam 1 2500,220.0,55.6746139,12.4924157,København,Villa
2015-06-06,1375000,"Solgt, Familiehandel",1934,https://www.boligsiden.dk/adresse/krogebjerg-31-2720-vanloese-01013972__31_______,Krogebjerg 31 2720 Vanløse,Krogebjerg 31 2720,122.0,55.6918738,12.4695028,København,Villa
2017-10-10,708364,"Solgt, Familiehandel",1966,https://www.boligsiden.dk/adresse/englodden-4-2500-valby-01011604___4_______,Englodden 4 2500 Valby,Englodden 4 2500,96.0,55.6479097,12.4966407,København,Villa
2016-05-26,1900000,"Solgt, Øvrigt",1935,https://www.boligsiden.dk/adresse/tjoernelunds-alle-21-2500-valby-01017500__21_______,Tjørnelunds Allé 21 2500 Valby,Tjørnelunds Allé 21 2500,109.0,55.6581153,12.4801758,København,Villa
2018-09-29,450000,"Solgt, Familiehandel",2008,https://www.boligsiden.dk/adresse/bregnegangen-9-2300-koebenhavn-s-01010818___9_______,Bregnegangen 9 2300 København S,Bregnegangen 9 2300,80.0,55.6467351,12.593077,København,Villa
2017-12-22,3495000,"Solgt, Øvrigt",2008,https://www.boligsiden.dk/adresse/bregnegangen-9-2300-koebenhavn-s-01010818___9_______,Bregnegangen 9 2300 København S,Bregnegangen 9 2300,80.0,55.6467351,12.593077,København,Villa
2016-03-11,1005564,"Solgt, Øvrigt",2008,https://www.boligsiden.dk/adresse/bregnegangen-9-2300-koebenhavn-s-01010818___9_______,Bregnegangen 9 2300 København S,Bregnegangen 9 2300,80.0,55.6467351,12.593077,København,Villa
2015-10-22,1889300,"Solgt, Familiehandel",2008,https://www.boligsiden.dk/adresse/bregnegangen-9-2300-koebenhavn-s-01010818___9_______,Bregnegangen 9 2300 København S,Bregnegangen 9 2300,80.0,55.6467351,12.593077,København,Villa
2018-08-21,5050000,"Solgt, Øvrigt",1897,https://www.boligsiden.dk/adresse/valbygaardsvej-10-2500-valby-01017900__10_______,Valbygårdsvej 10 2500 Valby,Valbygårdsvej 10 2500,202.0,55.6619277,12.5226157,København,Villa
2016-01-28,1543000,"Solgt, Øvrigt",1938,https://www.boligsiden.dk/adresse/hvedevej-43-2700-broenshoej-01013108__43_______,Hvedevej 43 2700 Brønshøj,Hvedevej 43 2700,177.0,55.7113262,12.4955039,København,Villa
2017-10-25,3000000,"Solgt, Familiehandel",1910,https://www.boligsiden.dk/adresse/bjerregaards-sidevej-3-2500-valby-01010580___3_______,Bjerregårds Sidevej 3 2500 Valby,Bjerregårds Sidevej 3 2500,318.0,55.664473,12.5271969,København,Villa
2021-02-17,1500000,"Solgt, Familiehandel",1932,https://www.boligsiden.dk/adresse/toelloesevej-55-2700-broenshoej-01017764__55_______,Tølløsevej 55 2700 Brønshøj,Tølløsevej 55 2700,126.0,55.7033177,12.4872241,København,Villa
2020-08-20,1829845,"Solgt, Familiehandel",1956,https://www.boligsiden.dk/adresse/windsorvej-32-2300-koebenhavn-s-01018376__32_______,Windsorvej 32 2300 København S,Windsorvej 32 2300,157.0,55.6414234,12.6008628,København,Villa
2017-11-06,6120000,"Solgt, Øvrigt",1924,https://www.boligsiden.dk/adresse/hoejsagervej-4-2500-valby-01013216___4_______,Højsagervej 4 2500 Valby,Højsagervej 4 2500,173.0,55.6607673,12.4895051,København,Villa
2019-02-27,3750000,"Solgt, Familiehandel",1918,https://www.boligsiden.dk/adresse/hvedevej-9-2700-broenshoej-01013108___9_______,Hvedevej 9 2700 Brønshøj,Hvedevej 9 2700,180.0,55.7074338,12.4956223,København,Villa
2019-04-17,1368750,"Solgt, Familiehandel",1917,https://www.boligsiden.dk/adresse/stoevringvej-5-2720-vanloese-01017092___5_______,Støvringvej 5 2720 Vanløse,Støvringvej 5 2720,188.0,55.6899622,12.4828507,København,Villa
2017-05-11,4448025,"Solgt, Auktion",1973,https://www.boligsiden.dk/adresse/mosesvinget-42-2400-koebenhavn-nv-01014836__42_______,Mosesvinget 42 2400 København NV,Mosesvinget 42 2400,220.0,55.714669,12.5092571,København,Villa
2017-03-10,3500000,"Solgt, Familiehandel",2013,https://www.boligsiden.dk/adresse/mosebakken-4-2400-koebenhavn-nv-01014820___4_______,Mosebakken 4 2400 København NV,Mosebakken 4 2400,200.0,55.711878,12.510817,København,Villa
2016-02-02,1445000,"Solgt, Familiehandel",1924,https://www.boligsiden.dk/adresse/kongelundsvej-30-2300-koebenhavn-s-01013844__30_______,Kongelundsvej 30 2300 København S,Kongelundsvej 30 2300,223.0,55.6415253,12.5888955,København,Villa
2017-05-16,1500000,"Solgt, Familiehandel",1937,https://www.boligsiden.dk/adresse/vangs-alle-13-2500-valby-01017976__13_______,Vangs Allé 13 2500 Valby,Vangs Allé 13 2500,80.0,55.65747349999999,12.4817063,København,Villa
2015-07-02,3525000,"Solgt, Øvrigt",1926,https://www.boligsiden.dk/adresse/merloesevej-6-2700-broenshoej-01014724___6_______,Merløsevej 6 2700 Brønshøj,Merløsevej 6 2700,131.0,55.7067238,12.471718,København,Villa
2016-09-20,2596066,"Solgt, Familiehandel",1935,https://www.boligsiden.dk/adresse/irlandsvej-85-2300-koebenhavn-s-01013288__85_______,Irlandsvej 85 2300 København S,Irlandsvej 85 2300,169.0,55.6434286,12.6068988,København,Villa
2015-04-13,1004088,"Solgt, Øvrigt",1932,https://www.boligsiden.dk/adresse/fladstjernevej-8-2400-koebenhavn-nv-01011804___8_______,Fladstjernevej 8 2400 København NV,Fladstjernevej 8 2400,152.0,55.7222474,12.5331899,København,Villa
2016-03-03,900000,"Solgt, Auktion""}]",2017,https://www.boligsiden.dk/adresse/borrebyvej-40-2700-broenshoej-01010752__40_______,Borrebyvej 40 2700 Brønshøj,Borrebyvej 40 2700,119.0,55.698186,12.4941273,København,Villa
2015-11-06,700000,"Solgt, Øvrigt",1952,https://www.boligsiden.dk/adresse/oestergaards-alle-3-2500-valby-01018596___3_______,Østergårds Allé 3 2500 Valby,Østergårds Allé 3 2500,163.0,56.075258,10.044882,København,Villa
2015-04-15,3050000,"Solgt, Øvrigt",1923,https://www.boligsiden.dk/adresse/livornovej-3-2300-koebenhavn-s-01014368___3_______,Livornovej 3 2300 København S,Livornovej 3 2300,132.0,55.6550747,12.6259627,København,Villa
2017-10-31,22500000,"Solgt, Øvrigt",1877,https://www.boligsiden.dk/adresse/rosenvaengets-alle-46-2100-koebenhavn-oe-01015948__46_______,Rosenvængets Allé 46 2100 København Ø,Rosenvængets Allé 46 2100,486.0,55.7004357,12.5854495,København,Villa
2020-07-02,4096000,"Solgt, Auktion",1947,https://www.boligsiden.dk/adresse/borghaven-44-2500-valby-01010724__44_______,Borghaven 44 2500 Valby,Borghaven 44 2500,132.0,55.6486943,12.4967504,København,Villa
2017-04-18,1100000,"Solgt, Familiehandel",1956,https://www.boligsiden.dk/adresse/bjernedevej-17-2700-broenshoej-01010576__17_______,Bjernedevej 17 2700 Brønshøj,Bjernedevej 17 2700,86.0,55.6993549,12.478576,København,Villa
2016-04-07,3000000,"Solgt, Auktion",1950,https://www.boligsiden.dk/adresse/slotsherrensvej-99-2720-vanloese-01016600__99_______,Slotsherrensvej 99 2720 Vanløse,Slotsherrensvej 99 2720,178.0,55.6980138,12.4753748,København,Villa
2015-03-23,3400000,"Solgt, Familiehandel",1934,https://www.boligsiden.dk/adresse/milanovej-57-2300-koebenhavn-s-01014760__57_______,Milanovej 57 2300 København S,Milanovej 57 2300,143.0,55.656243,12.627828,København,Villa
2019-06-27,1083750,"Solgt, Øvrigt",1975,https://www.boligsiden.dk/adresse/hedegaardsvej-17a-2300-koebenhavn-s-01012720_17a_______,Hedegaardsvej 17A 2300 København S,Hedegaardsvej 17A 2300,121.0,55.6452323,12.6319355,København,Villa
2017-08-28,2225000,"Solgt, Familiehandel",1926,https://www.boligsiden.dk/adresse/baekkeskovvej-8-2700-broenshoej-01011020___8_______,Bækkeskovvej 8 2700 Brønshøj,Bækkeskovvej 8 2700,238.0,55.6950917,12.4938863,København,Villa
2018-01-17,2450000,"Solgt, Øvrigt",1929,https://www.boligsiden.dk/adresse/engvej-130-2300-koebenhavn-s-01011620_130_______,Engvej 130 2300 København S,Engvej 130 2300,108.0,55.64881,12.6335655,København,Villa
2015-10-29,2422500,"Solgt, Familiehandel",1949,https://www.boligsiden.dk/adresse/roselillevej-94-2300-koebenhavn-s-01015912__94_______,Roselillevej 94 2300 København S,Roselillevej 94 2300,102.0,55.6509826,12.6343043,København,Villa
2016-01-18,9250000,"Solgt, Familiehandel",1945,https://www.boligsiden.dk/adresse/ved-damhussoeen-8-2720-vanloese-01018044___8_______,Ved Damhussøen 8 2720 Vanløse,Ved Damhussøen 8 2720,238.0,55.6776168,12.479537,København,Villa
2017-01-27,1800000,"Solgt, Øvrigt",1976,https://www.boligsiden.dk/adresse/amagerbrogade-273-2300-koebenhavn-s-01010108_273_______,Amagerbrogade 273 2300 København S,Amagerbrogade 273 2300,122.0,55.6434665,12.6163624,København,Villa
2018-02-03,943500,"Solgt, Familiehandel",1923,https://www.boligsiden.dk/adresse/bedfordvej-5-2300-koebenhavn-s-01010420___5_______,Bedfordvej 5 2300 København S,Bedfordvej 5 2300,100.0,55.6422268,12.6058463,København,Villa
2016-05-03,2085500,"Solgt, Øvrigt",1922,https://www.boligsiden.dk/adresse/frilands-alle-5-2500-valby-01011992___5_______,Frilands Allé 5 2500 Valby,Frilands Allé 5 2500,92.0,55.6684346,12.4949396,København,Villa
2018-10-16,3315000,"Solgt, Familiehandel",1934,https://www.boligsiden.dk/adresse/egholmvej-54-2720-vanloese-01011464__54_______,Egholmvej 54 2720 Vanløse,Egholmvej 54 2720,199.0,55.69542080000001,12.4785187,København,Villa
2018-03-12,475000,"Solgt, Familiehandel",1920,https://www.boligsiden.dk/adresse/hoejmosevej-5-2400-koebenhavn-nv-01013208___5_______,Højmosevej 5 2400 København NV,Højmosevej 5 2400,205.0,55.7236225,12.5275576,København,Villa
2015-09-14,2385000,"Solgt, Auktion",1957,https://www.boligsiden.dk/adresse/teglstrupvej-24a-2100-koebenhavn-oe-01017356_24a_______,Teglstrupvej 24A 2100 København Ø,Teglstrupvej 24A 2100,115.0,55.72042260000001,12.5550131,København,Villa
2018-08-13,1805609,"Solgt, Familiehandel",1936,https://www.boligsiden.dk/adresse/eschrichtsvej-63-2500-valby-01011660__63_______,Eschrichtsvej 63 2500 Valby,Eschrichtsvej 63 2500,117.0,55.662972,12.4988869,København,Villa
2023-01-14,10000000,"Solgt, Øvrigt",1929,https://www.boligsiden.dk/adresse/genuavej-51-2300-koebenhavn-s-01012168__51_______,Genuavej 51 2300 København S,Genuavej 51 2300,141.0,55.6562832,12.6265981,København,Villa
2018-02-18,1600000,"Solgt, Øvrigt",1929,https://www.boligsiden.dk/adresse/husumvej-97-2700-broenshoej-01013096__97_______,Husumvej 97 2700 Brønshøj,Husumvej 97 2700,114.0,55.7066818,12.4776555,København,Villa
2015-05-08,1860069,"Solgt, Øvrigt",1932,https://www.boligsiden.dk/adresse/horsebakken-63-2400-koebenhavn-nv-01013024__63_______,Horsebakken 63 2400 København NV,Horsebakken 63 2400,105.0,55.717429,12.512529,København,Villa
2020-01-20,3500000,"Solgt, Familiehandel",1941,https://www.boligsiden.dk/adresse/olymposvej-43-2300-koebenhavn-s-01015300__43_______,Olymposvej 43 2300 København S,Olymposvej 43 2300,167.0,55.6428637,12.6249931,København,Villa
2022-11-22,3000000,"Solgt, Familiehandel",1977,https://www.boligsiden.dk/adresse/azaleagangen-1-2300-koebenhavn-s-01010294___1_______,Azaleagangen 1 2300 København S,Azaleagangen 1 2300,54.0,55.6470753,12.5922812,København,Villa
2019-05-28,2000000,"Solgt, Familiehandel",1921,https://www.boligsiden.dk/adresse/vanloese-byvej-24-2720-vanloese-01017988__24_______,Vanløse Byvej 24 2720 Vanløse,Vanløse Byvej 24 2720,152.0,55.6877035,12.4778948,København,Villa
2016-02-28,2777500,"Solgt, Øvrigt",1922,https://www.boligsiden.dk/adresse/fuglsang-alle-71-2700-broenshoej-01012020__71_______,Fuglsang Allé 71 2700 Brønshøj,Fuglsang Allé 71 2700,143.0,55.6979646,12.5015056,København,Villa
2015-06-03,2425000,"Solgt, Øvrigt",1922,https://www.boligsiden.dk/adresse/fuglsang-alle-71-2700-broenshoej-01012020__71_______,Fuglsang Allé 71 2700 Brønshøj,Fuglsang Allé 71 2700,143.0,55.6979646,12.5015056,København,Villa
2015-03-16,1500000,"Solgt, Familiehandel",1970,https://www.boligsiden.dk/adresse/husumvej-30-2700-broenshoej-01013096__30_______,Husumvej 30 2700 Brønshøj,Husumvej 30 2700,207.0,55.6992483,12.4807233,København,Villa
2020-02-28,1200000,"Solgt, Øvrigt",1936,https://www.boligsiden.dk/adresse/hoertoftevej-5-2700-broenshoej-01013240___5_______,Hørtoftevej 5 2700 Brønshøj,Hørtoftevej 5 2700,78.0,55.7139475,12.4726338,København,Villa
2019-06-18,2520000,"Solgt, Familiehandel",1936,https://www.boligsiden.dk/adresse/hoertoftevej-5-2700-broenshoej-01013240___5_______,Hørtoftevej 5 2700 Brønshøj,Hørtoftevej 5 2700,78.0,55.7139475,12.4726338,København,Villa
2018-01-15,3000000,"Solgt, Familiehandel",1931,https://www.boligsiden.dk/adresse/hoejstrupvej-151-2700-broenshoej-01013220_151_______,Højstrupvej 151 2700 Brønshøj,Højstrupvej 151 2700,129.0,55.70573479999999,12.4817384,København,Villa
2015-05-26,2025000,"Solgt, Familiehandel",1929,https://www.boligsiden.dk/adresse/krogebjerg-20-2720-vanloese-01013972__20_______,Krogebjerg 20 2720 Vanløse,Krogebjerg 20 2720,124.0,55.6923693,12.4697217,København,Villa
2021-05-18,3375000,"Solgt, Familiehandel",1939,https://www.boligsiden.dk/adresse/oldfuxvej-6-2400-koebenhavn-nv-01015260___6_______,Oldfuxvej 6 2400 København NV,Oldfuxvej 6 2400,111.0,55.7178014,12.5356698,København,Villa
2017-08-04,1132947,"Solgt, Familiehandel",1927,https://www.boligsiden.dk/adresse/soendervigvej-31-2720-vanloese-01017304__31_______,Søndervigvej 31 2720 Vanløse,Søndervigvej 31 2720,90.0,55.693922,12.4710297,København,Villa
2018-10-03,1700000,"Solgt, Øvrigt",2020,https://www.boligsiden.dk/adresse/portlandsvej-27-2300-koebenhavn-s-01015572__27_______,Portlandsvej 27 2300 København S,Portlandsvej 27 2300,165.0,55.64330320000001,12.6014358,København,Villa
2019-09-27,2550000,"Solgt, Familiehandel",1929,https://www.boligsiden.dk/adresse/laestedet-12-2500-valby-01014536__12_______,Læstedet 12 2500 Valby,Læstedet 12 2500,144.0,55.66652449999999,12.4828058,København,Villa
2019-12-23,5660000,"Solgt, Familiehandel",1971,https://www.boligsiden.dk/adresse/rosbaeksvej-20-2100-koebenhavn-oe-01015908__20_______,Rosbæksvej 20 2100 København Ø,Rosbæksvej 20 2100,228.0,55.7228357,12.5717783,København,Villa
2018-06-21,765000,"Solgt, Familiehandel",1928,https://www.boligsiden.dk/adresse/hareskovvej-70-2700-broenshoej-01012644__70_______,Hareskovvej 70 2700 Brønshøj,Hareskovvej 70 2700,106.0,55.7104639,12.5075877,København,Villa
2017-05-31,765000,"Solgt, Familiehandel",1928,https://www.boligsiden.dk/adresse/hareskovvej-70-2700-broenshoej-01012644__70_______,Hareskovvej 70 2700 Brønshøj,Hareskovvej 70 2700,106.0,55.7104639,12.5075877,København,Villa
2020-07-16,784828,"Solgt, Familiehandel",2009,https://www.boligsiden.dk/adresse/kongelundsvej-88b-2300-koebenhavn-s-01013844_88b_______,Kongelundsvej 88B 2300 København S,Kongelundsvej 88B 2300,104.0,55.6363237,12.5880379,København,Villa
2019-06-28,1650000,"Solgt, Familiehandel",2009,https://www.boligsiden.dk/adresse/kongelundsvej-88b-2300-koebenhavn-s-01013844_88b_______,Kongelundsvej 88B 2300 København S,Kongelundsvej 88B 2300,104.0,55.6363237,12.5880379,København,Villa
2019-06-11,3000000,"Solgt, Familiehandel",2009,https://www.boligsiden.dk/adresse/kongelundsvej-88b-2300-koebenhavn-s-01013844_88b_______,Kongelundsvej 88B 2300 København S,Kongelundsvej 88B 2300,104.0,55.6363237,12.5880379,København,Villa
2015-07-17,824527,"Solgt, Øvrigt",2009,https://www.boligsiden.dk/adresse/kongelundsvej-88b-2300-koebenhavn-s-01013844_88b_______,Kongelundsvej 88B 2300 København S,Kongelundsvej 88B 2300,104.0,55.6363237,12.5880379,København,Villa
2015-02-23,1200000,"Solgt, Familiehandel",2009,https://www.boligsiden.dk/adresse/kongelundsvej-88b-2300-koebenhavn-s-01013844_88b_______,Kongelundsvej 88B 2300 København S,Kongelundsvej 88B 2300,104.0,55.6363237,12.5880379,København,Villa
2016-06-23,2210000,"Solgt, Familiehandel",1934,https://www.boligsiden.dk/adresse/nakskovvej-125-2500-valby-01014932_125_______,Nakskovvej 125 2500 Valby,Nakskovvej 125 2500,104.0,55.6646245,12.4845804,København,Villa
2015-09-28,1332000,"Solgt, Familiehandel",1975,https://www.boligsiden.dk/adresse/borneovej-19b-2300-koebenhavn-s-01010744_19b_______,Borneovej 19B 2300 København S,Borneovej 19B 2300,173.0,55.6459031,12.6318702,København,Villa
2022-02-25,4850000,"Solgt, Øvrigt",1960,https://www.boligsiden.dk/adresse/marsalavej-8-2300-koebenhavn-s-01014660___8_______,Marsalavej 8 2300 København S,Marsalavej 8 2300,129.0,55.6549679,12.6269518,København,Villa
2016-07-21,1664500,"Solgt, Familiehandel",1958,https://www.boligsiden.dk/adresse/kongeslusen-17-2610-roedovre-01013856__17_______,Kongeslusen 17 2610 Rødovre,Kongeslusen 17 2610,133.0,55.6723491,12.4776215,København,Villa
2021-03-16,2025000,"Solgt, Familiehandel",2018,https://www.boligsiden.dk/adresse/diamantgangen-89-2300-koebenhavn-s-01011298__89_______,"Diamantgangen 89 Hf. Sundbyvester, 2300 København S",Diamantgangen 89,89.0,55.6454797,12.5898126,København,Villa
2020-10-23,850000,"Solgt, Familiehandel",2018,https://www.boligsiden.dk/adresse/diamantgangen-89-2300-koebenhavn-s-01011298__89_______,"Diamantgangen 89 Hf. Sundbyvester, 2300 København S",Diamantgangen 89,89.0,55.6454797,12.5898126,København,Villa
2019-11-08,2145000,"Solgt, Familiehandel",2018,https://www.boligsiden.dk/adresse/diamantgangen-89-2300-koebenhavn-s-01011298__89_______,"Diamantgangen 89 Hf. Sundbyvester, 2300 København S",Diamantgangen 89,89.0,55.6454797,12.5898126,København,Villa
2018-11-26,1313693,"Solgt, Familiehandel",2018,https://www.boligsiden.dk/adresse/diamantgangen-89-2300-koebenhavn-s-01011298__89_______,"Diamantgangen 89 Hf. Sundbyvester, 2300 København S",Diamantgangen 89,89.0,55.6454797,12.5898126,København,Villa
2017-03-16,1625000,"Solgt, Familiehandel",2018,https://www.boligsiden.dk/adresse/diamantgangen-89-2300-koebenhavn-s-01011298__89_______,"Diamantgangen 89 Hf. Sundbyvester, 2300 København S",Diamantgangen 89,89.0,55.6454797,12.5898126,København,Villa
2015-11-23,809307,"Solgt, Familiehandel",2018,https://www.boligsiden.dk/adresse/diamantgangen-89-2300-koebenhavn-s-01011298__89_______,"Diamantgangen 89 Hf. Sundbyvester, 2300 København S",Diamantgangen 89,89.0,55.6454797,12.5898126,København,Villa
2015-10-09,628714,"Solgt, Øvrigt",2018,https://www.boligsiden.dk/adresse/diamantgangen-89-2300-koebenhavn-s-01011298__89_______,"Diamantgangen 89 Hf. Sundbyvester, 2300 København S",Diamantgangen 89,89.0,55.6454797,12.5898126,København,Villa
2015-06-08,719927,"Solgt, Øvrigt",2018,https://www.boligsiden.dk/adresse/diamantgangen-89-2300-koebenhavn-s-01011298__89_______,"Diamantgangen 89 Hf. Sundbyvester, 2300 København S",Diamantgangen 89,89.0,55.6454797,12.5898126,København,Villa
2015-01-29,354000,"Solgt, Øvrigt",2018,https://www.boligsiden.dk/adresse/diamantgangen-89-2300-koebenhavn-s-01011298__89_______,"Diamantgangen 89 Hf. Sundbyvester, 2300 København S",Diamantgangen 89,89.0,55.6454797,12.5898126,København,Villa
2019-12-09,1870000,"Solgt, Familiehandel",1956,https://www.boligsiden.dk/adresse/islevholm-9-2700-broenshoej-01013304___9_______,Islevholm 9 2700 Brønshøj,Islevholm 9 2700,104.0,55.708816,12.4552953,København,Villa
2016-02-12,2200000,"Solgt, Øvrigt",1943,https://www.boligsiden.dk/adresse/engdals-alle-3-2500-valby-01011564___3_______,Engdals Allé 3 2500 Valby,Engdals Allé 3 2500,96.0,55.660203,12.4787395,København,Villa
2019-11-10,2167500,"Solgt, Familiehandel",1937,https://www.boligsiden.dk/adresse/hustoftevej-18-2700-broenshoej-01013088__18_______,Hustoftevej 18 2700 Brønshøj,Hustoftevej 18 2700,140.0,55.7129883,12.4725073,København,Villa
2016-06-06,2000000,"Solgt, Øvrigt",2023,https://www.boligsiden.dk/adresse/hagbardvej-18-2300-koebenhavn-s-01012512__18_______,Hagbardvej 18 2300 København S,Hagbardvej 18 2300,153.0,55.6553868,12.6360293,København,Villa
2017-07-03,595000,"Solgt, Familiehandel",1920,https://www.boligsiden.dk/adresse/mellemvangen-27-2700-broenshoej-01014720__27_______,Mellemvangen 27 2700 Brønshøj,Mellemvangen 27 2700,93.0,55.7093235,12.5094796,København,Villa
2016-03-04,1296250,"Solgt, Øvrigt",1959,https://www.boligsiden.dk/adresse/harbooerevej-21-2720-vanloese-01012628__21_______,Harboørevej 21 2720 Vanløse,Harboørevej 21 2720,195.0,55.6972925,12.4661057,København,Villa
2021-03-19,765000,"Solgt, Familiehandel",1958,https://www.boligsiden.dk/adresse/soendervangs-alle-70-2500-valby-01017300__70_______,Søndervangs Allé 70 2500 Valby,Søndervangs Allé 70 2500,98.0,55.6531359,12.4891558,København,Villa
2020-12-09,765000,"Solgt, Familiehandel",1958,https://www.boligsiden.dk/adresse/soendervangs-alle-70-2500-valby-01017300__70_______,Søndervangs Allé 70 2500 Valby,Søndervangs Allé 70 2500,98.0,55.6531359,12.4891558,København,Villa
2016-03-02,400000,"Solgt, Øvrigt",1928,https://www.boligsiden.dk/adresse/stenkloevervej-12-2400-koebenhavn-nv-01016876__12_______,Stenkløvervej 12 2400 København NV,Stenkløvervej 12 2400,202.0,55.7263191,12.5317847,København,Villa
2016-01-01,1577500,"Solgt, Øvrigt",1936,https://www.boligsiden.dk/adresse/tybjergvej-15-2720-vanloese-01017732__15_______,Tybjergvej 15 2720 Vanløse,Tybjergvej 15 2720,101.0,55.6921115,12.475328,København,Villa
2018-07-30,1064943,"Solgt, Familiehandel",1940,https://www.boligsiden.dk/adresse/kongshaven-71-2500-valby-01013872__71_______,Kongshaven 71 2500 Valby,Kongshaven 71 2500,75.0,55.6535316,12.4891462,København,Villa
2016-05-30,3100000,"Solgt, Øvrigt",1954,https://www.boligsiden.dk/adresse/frilands-alle-21-2500-valby-01011992__21_______,Frilands Allé 21 2500 Valby,Frilands Allé 21 2500,137.0,55.6672272,12.4956617,København,Villa
2015-01-19,1955000,"Solgt, Familiehandel",1927,https://www.boligsiden.dk/adresse/roshagevej-30-2720-vanloese-01015964__30_______,Roshagevej 30 2720 Vanløse,Roshagevej 30 2720,107.0,55.6967849,12.4655812,København,Villa
2016-12-20,1000000,"Solgt, Familiehandel",2022,https://www.boligsiden.dk/adresse/wibrandtsvej-20-2300-koebenhavn-s-01018296__20_______,Wibrandtsvej 20 2300 København S,Wibrandtsvej 20 2300,139.0,55.6462264,12.6182142,København,Villa
2017-09-26,2600000,"Solgt, Familiehandel",1980,https://www.boligsiden.dk/adresse/aabjergvej-22-2720-vanloese-01018632__22_______,Åbjergvej 22 2720 Vanløse,Åbjergvej 22 2720,142.0,55.6797327,12.4799515,København,Villa
2015-06-30,2010315,"Solgt, Familiehandel",1922,https://www.boligsiden.dk/adresse/havsgaardsvej-7-2900-hellerup-01012708___7_______,Havsgårdsvej 7 2900 Hellerup,Havsgårdsvej 7 2900,112.0,55.7237175,12.5478172,København,Villa
2015-10-28,3500000,"Solgt, Øvrigt",1913,https://www.boligsiden.dk/adresse/overbys-alle-14-2500-valby-01015356__14_______,Overbys Allé 14 2500 Valby,Overbys Allé 14 2500,188.0,55.6658414,12.5018279,København,Villa
2015-01-21,1827500,"Solgt, Familiehandel",1970,https://www.boligsiden.dk/adresse/portlandsvej-17-2300-koebenhavn-s-01015572__17_______,Portlandsvej 17 2300 København S,Portlandsvej 17 2300,126.0,55.64406109999999,12.6013427,København,Villa
2016-12-07,2100000,"Solgt, Familiehandel",1966,https://www.boligsiden.dk/adresse/langagervej-30-2500-valby-01014132__30_______,Langagervej 30 2500 Valby,Langagervej 30 2500,160.0,55.6616689,12.4897365,København,Villa
2015-04-20,1725000,"Solgt, Øvrigt",1955,https://www.boligsiden.dk/adresse/islevholm-1a-2700-broenshoej-01013304__1a_______,Islevholm 1A 2700 Brønshøj,Islevholm 1A 2700,81.0,55.7073306,12.4571199,København,Villa
2017-10-30,1871391,"Solgt, Øvrigt",1922,https://www.boligsiden.dk/adresse/firkloevervej-13-2400-koebenhavn-nv-01011780__13_______,Firkløvervej 13 2400 København NV,Firkløvervej 13 2400,144.0,55.72504869999999,12.5244674,København,Villa
2018-05-02,2625000,"Solgt, Familiehandel",1927,https://www.boligsiden.dk/adresse/dublinvej-24-2300-koebenhavn-s-01011368__24_______,Dublinvej 24 2300 København S,Dublinvej 24 2300,131.0,55.6409701,12.6039355,København,Villa
2017-06-01,692010,"Solgt, Familiehandel",1951,https://www.boligsiden.dk/adresse/hampeland-19-2700-broenshoej-01012572__19_______,Hampeland 19 2700 Brønshøj,Hampeland 19 2700,94.0,55.7175617,12.4644975,København,Villa
2018-03-07,3409352,"Solgt, Familiehandel",1962,https://www.boligsiden.dk/adresse/lindehaven-33-2500-valby-01014328__33_______,Lindehaven 33 2500 Valby,Lindehaven 33 2500,175.0,55.6528619,12.5015602,København,Villa
2017-08-10,2050000,"Solgt, Familiehandel",1939,https://www.boligsiden.dk/adresse/jupitervej-15-2720-vanloese-01013452__15_______,Jupitervej 15 2720 Vanløse,Jupitervej 15 2720,92.0,55.68706109999999,12.4965006,København,Villa
2017-09-07,2500000,"Solgt, Familiehandel",1928,https://www.boligsiden.dk/adresse/ravneholmsvej-22-2400-koebenhavn-nv-01015740__22_______,Ravneholmsvej 22 2400 København NV,Ravneholmsvej 22 2400,151.0,55.7133103,12.5199646,København,Villa
2018-10-16,1317500,"Solgt, Familiehandel",1933,https://www.boligsiden.dk/adresse/stakhaven-6-2500-valby-01016804___6_______,Stakhaven 6 2500 Valby,Stakhaven 6 2500,56.0,55.6460235,12.4974828,København,Villa
2021-05-10,22400000,"Solgt, Familiehandel",1904,https://www.boligsiden.dk/adresse/ehlersvej-6-2900-hellerup-01011472___6_______,Ehlersvej 6 2900 Hellerup,Ehlersvej 6 2900,243.0,55.728096,12.5744608,København,Villa
2019-07-18,5295000,"Solgt, Familiehandel",1903,https://www.boligsiden.dk/adresse/mikkel-skovs-alle-5-2300-koebenhavn-s-01014752___5_______,Mikkel Skovs Allé 5 2300 København S,Mikkel Skovs Allé 5 2300,120.0,55.649644,12.6140062,København,Villa
2016-11-17,3150000,"Solgt, Øvrigt",1929,https://www.boligsiden.dk/adresse/basnaesvej-14-2700-broenshoej-01010392__14_______,Basnæsvej 14 2700 Brønshøj,Basnæsvej 14 2700,150.0,55.69908390000001,12.4957866,København,Villa
2022-07-28,1870000,"Solgt, Familiehandel",1934,https://www.boligsiden.dk/adresse/englandsvej-187-2300-koebenhavn-s-01011600_187_______,Englandsvej 187 2300 København S,Englandsvej 187 2300,108.0,55.6419355,12.5991979,København,Villa
2015-10-27,1381250,"Solgt, Familiehandel",1920,https://www.boligsiden.dk/adresse/mellemvangen-2-2700-broenshoej-01014720___2_______,Mellemvangen 2 2700 Brønshøj,Mellemvangen 2 2700,160.0,55.71103309999999,12.5115371,København,Villa
2017-06-27,756500,"Solgt, Familiehandel",1953,https://www.boligsiden.dk/adresse/spontinisvej-10-2450-koebenhavn-sv-01016776__10_______,Spontinisvej 10 2450 København SV,Spontinisvej 10 2450,90.0,55.6490587,12.5208148,København,Villa
2023-02-27,7500000,"Solgt, Familiehandel",1730,https://www.boligsiden.dk/adresse/gernersgade-38-0-1319-koebenhavn-k-01012188__38_st____,"Gernersgade 38, st. 1319 København K",Gernersgade 38,280.0,55.6885144,12.5863131,København,Villa
2020-04-01,3900000,"Solgt, Familiehandel",1922,https://www.boligsiden.dk/adresse/palermovej-4-2300-koebenhavn-s-01015392___4_______,Palermovej 4 2300 København S,Palermovej 4 2300,133.0,55.66022,12.623103,København,Villa
2015-06-30,2859000,"Solgt, Familiehandel",1934,https://www.boligsiden.dk/adresse/storkebakken-39-2400-koebenhavn-nv-01016968__39_______,Storkebakken 39 2400 København NV,Storkebakken 39 2400,160.0,55.7139184,12.5083782,København,Villa
2020-12-01,3000000,"Solgt, Familiehandel",1934,https://www.boligsiden.dk/adresse/slotsherrensvej-30-2720-vanloese-01016600__30_______,Slotsherrensvej 30 2720 Vanløse,Slotsherrensvej 30 2720,110.0,55.6960083,12.4892688,København,Villa
2015-08-26,1950000,"Solgt, Familiehandel",1920,https://www.boligsiden.dk/adresse/dyssevaenget-6a-2700-broenshoej-01011400__6a_______,Dyssevænget 6A 2700 Brønshøj,Dyssevænget 6A 2700,130.0,55.7009842,12.4671152,København,Villa
2015-06-18,1150000,"Solgt, Øvrigt",1927,https://www.boligsiden.dk/adresse/englandsvej-146-2300-koebenhavn-s-01011600_146_______,Englandsvej 146 2300 København S,Englandsvej 146 2300,74.0,55.6458068,12.5976567,København,Villa
2015-12-18,2040000,"Solgt, Familiehandel",2017,https://www.boligsiden.dk/adresse/krogebjerg-66-2720-vanloese-01013972__66_______,Krogebjerg 66 2720 Vanløse,Krogebjerg 66 2720,166.0,55.6978957,12.4658,København,Villa
2016-10-14,2375000,"Solgt, Øvrigt",1925,https://www.boligsiden.dk/adresse/borrebyvej-56-2700-broenshoej-01010752__56_______,Borrebyvej 56 2700 Brønshøj,Borrebyvej 56 2700,168.0,55.6993099,12.4943954,København,Villa
2020-01-14,4355000,"Solgt, Familiehandel",2014,https://www.boligsiden.dk/adresse/iranvej-18-2300-koebenhavn-s-01013280__18_______,Iranvej 18 2300 København S,Iranvej 18 2300,190.0,55.6485555,12.631093,København,Villa
2015-12-21,990000,"Solgt, Familiehandel",1936,https://www.boligsiden.dk/adresse/sorrentovej-28-2300-koebenhavn-s-01016736__28_______,Sorrentovej 28 2300 København S,Sorrentovej 28 2300,230.0,55.6573943,12.6255778,København,Villa
2018-07-16,1177407,"Solgt, Familiehandel",1959,https://www.boligsiden.dk/adresse/oxford-alle-83a-2300-koebenhavn-s-01015384_83a_______,Oxford Allé 83A 2300 København S,Oxford Allé 83A 2300,137.0,55.6398338,12.6017417,København,Villa
2017-05-18,2100000,"Solgt, Familiehandel",1960,https://www.boligsiden.dk/adresse/dyssevaenget-29a-2700-broenshoej-01011400_29a_______,Dyssevænget 29A 2700 Brønshøj,Dyssevænget 29A 2700,141.0,55.70389110000001,12.46582,København,Villa
2015-03-25,50000,"Solgt, Familiehandel",1928,https://www.boligsiden.dk/adresse/vallekildevej-1b-2700-broenshoej-01017952__1b_______,Vallekildevej 1B 2700 Brønshøj,Vallekildevej 1B 2700,115.0,55.7011584,12.4710228,København,Villa
2016-05-18,5000000,"Solgt, Familiehandel",2015,https://www.boligsiden.dk/adresse/sumatravej-36-2300-koebenhavn-s-01017104__36_______,Sumatravej 36 2300 København S,Sumatravej 36 2300,246.0,55.6500006,12.6306807,København,Villa
2016-01-14,2591000,"Solgt, Familiehandel",1942,https://www.boligsiden.dk/adresse/milanovej-26-2300-koebenhavn-s-01014760__26_______,Milanovej 26 2300 København S,Milanovej 26 2300,82.0,55.65920569999999,12.6247819,København,Villa
2016-11-15,1806250,"Solgt, Familiehandel",1920,https://www.boligsiden.dk/adresse/ole-borchs-vej-36-2500-valby-01015264__36_______,Ole Borchs Vej 36 2500 Valby,Ole Borchs Vej 36 2500,230.0,55.6631138,12.4949514,København,Villa
2015-08-25,4802500,"Solgt, Familiehandel",1882,https://www.boligsiden.dk/adresse/abildgaardsgade-3-2100-koebenhavn-oe-01010008___3_______,Abildgaardsgade 3 2100 København Ø,Abildgaardsgade 3 2100,166.0,55.6909248,12.5753009,København,Rækkehus
2017-08-16,2250000,"Solgt, Familiehandel",1919,https://www.boligsiden.dk/adresse/mellemvangen-35-2700-broenshoej-01014720__35_______,Mellemvangen 35 2700 Brønshøj,Mellemvangen 35 2700,161.0,55.7087776,12.5077528,København,Rækkehus
2018-01-16,3315000,"Solgt, Familiehandel",1872,https://www.boligsiden.dk/adresse/krusemyntegade-4-1318-koebenhavn-k-01014004___4_______,Krusemyntegade 4 1318 København K,Krusemyntegade 4 1318,121.0,55.6884178,12.5852644,København,Rækkehus
2018-06-29,2400000,"Solgt, Familiehandel",2007,https://www.boligsiden.dk/adresse/clara-pontoppidans-vej-23-2500-valby-01011166__23_______,Clara Pontoppidans Vej 23 2500 Valby,Clara Pontoppidans Vej 23 2500,135.0,55.65752519999999,12.5111756,København,Rækkehus
2017-03-03,5200000,"Solgt, Familiehandel",2018,https://www.boligsiden.dk/adresse/tovelillevej-61a-2300-koebenhavn-s-01017604_61a_______,Tovelillevej 61A 2300 København S,Tovelillevej 61A 2300,112.0,55.6554087,12.6328875,København,Rækkehus
2018-03-15,4250000,"Solgt, Øvrigt",2019,https://www.boligsiden.dk/adresse/noeddehaven-14b-2500-valby-01015168_14b_______,Nøddehaven 14B 2500 Valby,Nøddehaven 14B 2500,150.0,55.6542089,12.4985459,København,Rækkehus
2015-04-24,1326000,"Solgt, Familiehandel",1888,https://www.boligsiden.dk/adresse/vesterfaelledvej-32-1750-koebenhavn-v-01018212__32_______,Vesterfælledvej 32 1750 København V,Vesterfælledvej 32 1750,137.0,55.668449,12.5397913,København,Rækkehus
2016-04-19,1636250,"Solgt, Familiehandel",1888,https://www.boligsiden.dk/adresse/carstensgade-16-1770-koebenhavn-v-01011088__16_______,Carstensgade 16 1770 København V,Carstensgade 16 1770,137.0,55.66898279999999,12.5390968,København,Rækkehus
2018-03-30,4000000,"Solgt, Familiehandel",2017,https://www.boligsiden.dk/adresse/richard-mortensens-vej-6w-2300-koebenhavn-s-01015833__6w_______,Richard Mortensens Vej 6W 2300 København S,Richard Mortensens Vej 6W 2300,134.0,55.6236009,12.5715315,København,Rækkehus
2019-07-24,5601000,"Solgt, Familiehandel",1730,https://www.boligsiden.dk/adresse/kronprinsessegade-78-1306-koebenhavn-k-01013996__78_______,Kronprinsessegade 78 1306 København K,Kronprinsessegade 78 1306,244.0,55.6886433,12.5859406,København,Rækkehus
2020-02-24,3650000,"Solgt, Auktion",1989,https://www.boligsiden.dk/adresse/hyttehusvej-8a-2300-koebenhavn-s-01013160__8a_______,Hyttehusvej 8A 2300 København S,Hyttehusvej 8A 2300,76.0,55.6410743,12.5877528,København,Rækkehus
2020-04-08,3000000,"Solgt, Øvrigt",2014,https://www.boligsiden.dk/adresse/luftmarinegade-48-1432-koebenhavn-k-01011970__48_______,Luftmarinegade 48 1432 København K,Luftmarinegade 48 1432,137.0,55.6859182,12.6150428,København,Rækkehus
2021-06-01,3700000,"Solgt, Familiehandel",1879,https://www.boligsiden.dk/adresse/webersgade-48-2100-koebenhavn-oe-01018020__48_______,Webersgade 48 2100 København Ø,Webersgade 48 2100,135.0,55.6907923,12.5729111,København,Rækkehus
2018-02-12,5800000,"Solgt, Øvrigt",1879,https://www.boligsiden.dk/adresse/webersgade-48-2100-koebenhavn-oe-01018020__48_______,Webersgade 48 2100 København Ø,Webersgade 48 2100,135.0,55.6907923,12.5729111,København,Rækkehus
2016-07-01,6737648,"Solgt, Familiehandel",2016,https://www.boligsiden.dk/adresse/kielgade-11-2150-nordhavn-01017726__11_______,Kielgade 11 2150 Nordhavn,Kielgade 11 2150,152.0,55.7081884,12.5948644,København,Rækkehus
2018-09-28,3800000,"Solgt, Familiehandel",1958,https://www.boligsiden.dk/adresse/katrinedalsvej-42d-2720-vanloese-01013608_42d_______,Katrinedalsvej 42D 2720 Vanløse,Katrinedalsvej 42D 2720,100.0,55.6901454,12.4919429,København,Rækkehus
2021-02-19,10000000,"Solgt, Familiehandel",1880,https://www.boligsiden.dk/adresse/jens-juels-gade-33-2100-koebenhavn-oe-01013376__33_______,Jens Juels Gade 33 2100 København Ø,Jens Juels Gade 33 2100,135.0,55.691081,12.573848,København,Rækkehus
2019-07-23,1967402,"Solgt, Familiehandel",1917,https://www.boligsiden.dk/adresse/eschrichtsvej-50-2500-valby-01011660__50_______,Eschrichtsvej 50 2500 Valby,Eschrichtsvej 50 2500,105.0,55.6626877,12.5007861,København,Rækkehus
2017-08-29,3234805,"Solgt, Familiehandel",1917,https://www.boligsiden.dk/adresse/eschrichtsvej-50-2500-valby-01011660__50_______,Eschrichtsvej 50 2500 Valby,Eschrichtsvej 50 2500,105.0,55.6626877,12.5007861,København,Rækkehus
2018-03-08,2700000,"Solgt, Familiehandel",1918,https://www.boligsiden.dk/adresse/castbergsvej-17-2500-valby-01011092__17_______,Castbergsvej 17 2500 Valby,Castbergsvej 17 2500,104.0,55.6629137,12.5007053,København,Rækkehus
2019-12-19,4000000,"Solgt, Familiehandel",1901,https://www.boligsiden.dk/adresse/kildevaeldsgade-12-2100-koebenhavn-oe-01013656__12_______,Kildevældsgade 12 2100 København Ø,Kildevældsgade 12 2100,236.0,55.7148434,12.5765673,København,Rækkehus
2018-12-20,2750000,"Solgt, Familiehandel",2016,https://www.boligsiden.dk/adresse/robert-jacobsens-vej-18f-2300-koebenhavn-s-01015894_18f_______,Robert Jacobsens Vej 18F 2300 København S,Robert Jacobsens Vej 18F 2300,106.0,55.623059,12.5738528,København,Rækkehus
2015-09-01,1625000,"Solgt, Øvrigt",1943,https://www.boligsiden.dk/adresse/daemningen-29-2500-valby-01011408__29_______,Dæmningen 29 2500 Valby,Dæmningen 29 2500,94.0,55.6647084,12.4802407,København,Rækkehus
2017-04-07,2050000,"Solgt, Familiehandel",1900,https://www.boligsiden.dk/adresse/enigheds-alle-26-2700-broenshoej-01011624__26_______,Enigheds Allé 26 2700 Brønshøj,Enigheds Allé 26 2700,96.0,55.706627,12.503965,København,Rækkehus
2018-05-31,3650000,"Solgt, Familiehandel",2014,https://www.boligsiden.dk/adresse/hilmar-baunsgaards-boulevard-17-2300-koebenhavn-s-01012891__17_______,Hilmar Baunsgaards Boulevard 17 2300 København S,Hilmar Baunsgaards Boulevard 17 2300,152.0,55.65595709999999,12.5669542,København,Rækkehus
2020-08-03,2762500,"Solgt, Familiehandel",1879,https://www.boligsiden.dk/adresse/webersgade-16-2100-koebenhavn-oe-01018020__16_______,Webersgade 16 2100 København Ø,Webersgade 16 2100,135.0,55.6903294,12.5740798,København,Rækkehus
2019-12-14,2334000,"Solgt, Familiehandel",1957,https://www.boligsiden.dk/adresse/groenagervej-15-2300-koebenhavn-s-01012320__15_______,Grønagervej 15 2300 København S,Grønagervej 15 2300,104.0,55.6405319,12.5930316,København,Rækkehus
2016-06-29,3952500,"Solgt, Familiehandel",1882,https://www.boligsiden.dk/adresse/abildgaardsgade-6-2100-koebenhavn-oe-01010008___6_______,Abildgaardsgade 6 2100 København Ø,Abildgaardsgade 6 2100,136.0,55.6911634,12.5753709,København,Rækkehus
2016-12-16,4750000,"Solgt, Familiehandel",1881,https://www.boligsiden.dk/adresse/jens-juels-gade-16-2100-koebenhavn-oe-01013376__16_______,Jens Juels Gade 16 2100 København Ø,Jens Juels Gade 16 2100,141.0,55.6909913,12.5746974,København,Rækkehus
2020-12-16,950000,"Solgt, Familiehandel",1919,https://www.boligsiden.dk/adresse/byvangen-12-2700-broenshoej-01011016__12_______,Byvangen 12 2700 Brønshøj,Byvangen 12 2700,129.0,55.7084547,12.5082527,København,Rækkehus
2016-04-18,711000,"Solgt, Øvrigt",2008,https://www.boligsiden.dk/adresse/buster-larsens-vej-4-2500-valby-01010966___4_______,Buster Larsens Vej 4 2500 Valby,Buster Larsens Vej 4 2500,124.0,55.6576094,12.5092847,København,Rækkehus
2017-09-10,1870000,"Solgt, Familiehandel",2018,https://www.boligsiden.dk/adresse/skraaningen-3a-2700-broenshoej-01016540__3a_______,Skråningen 3A 2700 Brønshøj,Skråningen 3A 2700,154.0,55.70528419999999,12.4614976,København,Rækkehus
2022-10-26,812400,"Solgt, Familiehandel",1884,https://www.boligsiden.dk/adresse/skovgaardsgade-4-2100-koebenhavn-oe-01016524___4_______,Skovgaardsgade 4 2100 København Ø,Skovgaardsgade 4 2100,137.0,55.69211929999999,12.5763558,København,Rækkehus
2017-04-05,840134,"Solgt, Familiehandel",1945,https://www.boligsiden.dk/adresse/tuborgvej-12b-2900-hellerup-01017684_12b_______,Tuborgvej 12B 2900 Hellerup,Tuborgvej 12B 2900,119.0,55.7273969,12.5730411,København,Rækkehus
2017-11-27,3900000,"Solgt, Familiehandel",1887,https://www.boligsiden.dk/adresse/bissensgade-11-1773-koebenhavn-v-01010556__11_______,Bissensgade 11 1773 København V,Bissensgade 11 1773,140.0,55.6682375,12.5381866,København,Rækkehus
2016-08-22,803480,"Solgt, Familiehandel",1930,https://www.boligsiden.dk/adresse/maagevej-5-2400-koebenhavn-nv-01014920___5_______,Mågevej 5 2400 København NV,Mågevej 5 2400,127.0,55.696866,12.5218656,København,Rækkehus
2016-06-09,1713500,"Solgt, Familiehandel",1947,https://www.boligsiden.dk/adresse/rosenholms-alle-50-2500-valby-01015936__50_______,Rosenholms Allé 50 2500 Valby,Rosenholms Allé 50 2500,82.0,55.6573128,12.481876,København,Rækkehus
2019-04-30,3885022,"Solgt, Familiehandel",2018,https://www.boligsiden.dk/adresse/rubinolavej-45-2500-valby-01015995__45_______,Rubinolavej 45 2500 Valby,Rubinolavej 45 2500,139.0,55.6555712,12.5030062,København,Rækkehus
2017-04-01,210389,"Solgt, Familiehandel",2007,https://www.boligsiden.dk/adresse/lily-brobergs-vej-39-2500-valby-01014310__39_______,Lily Brobergs Vej 39 2500 Valby,Lily Brobergs Vej 39 2500,125.0,55.6575949,12.5100917,København,Rækkehus
2015-05-08,7750000,"Solgt, Øvrigt",1886,https://www.boligsiden.dk/adresse/jerichausgade-26-1777-koebenhavn-v-01013396__26_______,Jerichausgade 26 1777 København V,Jerichausgade 26 1777,140.0,55.6674384,12.5376327,København,Rækkehus
2017-06-01,1750000,"Solgt, Øvrigt",2017,https://www.boligsiden.dk/adresse/hvidtjoernevej-12-2720-vanloese-01013128__12_______,Hvidtjørnevej 12 2720 Vanløse,Hvidtjørnevej 12 2720,175.0,55.680324,12.4814872,København,Rækkehus
2018-01-12,3621701,"Solgt, Familiehandel",1893,https://www.boligsiden.dk/adresse/heisesgade-32-2100-koebenhavn-oe-01012752__32_______,Heisesgade 32 2100 København Ø,Heisesgade 32 2100,151.0,55.7142158,12.5738133,København,Rækkehus
2019-06-13,1085940,"Solgt, Familiehandel",2013,https://www.boligsiden.dk/adresse/hareskovvej-44-2700-broenshoej-01012644__44_______,Hareskovvej 44 2700 Brønshøj,Hareskovvej 44 2700,115.0,55.709048,12.510101,København,Rækkehus
2018-12-12,2322500,"Solgt, Familiehandel",1943,https://www.boligsiden.dk/adresse/arabiensvej-14a-2300-koebenhavn-s-01010200_14a_______,Arabiensvej 14A 2300 København S,Arabiensvej 14A 2300,96.0,55.65036320000001,12.6245947,København,Rækkehus
2019-05-09,3500000,"Solgt, Familiehandel",2013,https://www.boligsiden.dk/adresse/amager-strandvej-144e-2300-koebenhavn-s-01010120144e_______,Amager Strandvej 144E 2300 København S,Amager Strandvej 144E 2300,126.0,55.65809609999999,12.634257,København,Rækkehus
2017-04-05,840134,"Solgt, Familiehandel",1945,https://www.boligsiden.dk/adresse/tuborgvej-12a-2900-hellerup-01017684_12a_______,Tuborgvej 12A 2900 Hellerup,Tuborgvej 12A 2900,170.0,55.7273419,12.5730866,København,Rækkehus
2019-07-12,1700000,"Solgt, Øvrigt",2019,https://www.boligsiden.dk/adresse/kongshaven-21a-2500-valby-01013872_21a_______,Kongshaven 21A 2500 Valby,Kongshaven 21A 2500,156.0,55.6552575,12.4968229,København,Rækkehus
2019-07-17,1700000,"Solgt, Øvrigt",2019,https://www.boligsiden.dk/adresse/kongshaven-21b-2500-valby-01013872_21b_______,Kongshaven 21B 2500 Valby,Kongshaven 21B 2500,156.0,55.6551677,12.4968912,København,Rækkehus
2021-01-07,2135000,"Solgt, Familiehandel",2006,https://www.boligsiden.dk/adresse/oxford-have-75-2300-koebenhavn-s-01015386__75_______,Oxford Have 75 2300 København S,Oxford Have 75 2300,92.0,55.6415577,12.6087062,København,Rækkehus
2017-06-29,3835000,"Solgt, Familiehandel",1901,https://www.boligsiden.dk/adresse/heisesgade-39-2100-koebenhavn-oe-01012752__39_______,Heisesgade 39 2100 København Ø,Heisesgade 39 2100,136.0,55.7146981,12.5732721,København,Rækkehus
2017-03-27,1800000,"Solgt, Familiehandel",1950,https://www.boligsiden.dk/adresse/kong-volmers-vej-5-2300-koebenhavn-s-01013884___5_______,Kong Volmers Vej 5 2300 København S,Kong Volmers Vej 5 2300,96.0,55.6574052,12.6324142,København,Rækkehus
2016-12-16,3412000,"Solgt, Familiehandel",1899,https://www.boligsiden.dk/adresse/badensgade-52-2300-koebenhavn-s-01010300__52_______,Badensgade 52 2300 København S,Badensgade 52 2300,183.0,55.6646108,12.6122326,København,Rækkehus
2016-11-29,1750000,"Solgt, Familiehandel",1945,https://www.boligsiden.dk/adresse/rebildvej-10b-2720-vanloese-01015760_10b_______,Rebildvej 10B 2720 Vanløse,Rebildvej 10B 2720,112.0,55.6918831,12.5052794,København,Rækkehus
2016-10-12,2266500,"Solgt, Familiehandel",2005,https://www.boligsiden.dk/adresse/nordre-digevej-44-2300-koebenhavn-s-01015036__44_______,Nordre Digevej 44 2300 København S,Nordre Digevej 44 2300,124.0,55.6510609,12.5883922,København,Rækkehus
2016-06-28,542000,"Solgt, Familiehandel",1919,https://www.boligsiden.dk/adresse/panumsvej-31-2500-valby-01015408__31_______,Panumsvej 31 2500 Valby,Panumsvej 31 2500,106.0,55.6618235,12.5001844,København,Rækkehus
2015-06-02,500000,"Solgt, Øvrigt",1919,https://www.boligsiden.dk/adresse/panumsvej-31-2500-valby-01015408__31_______,Panumsvej 31 2500 Valby,Panumsvej 31 2500,106.0,55.6618235,12.5001844,København,Rækkehus
2017-05-31,2150000,"Solgt, Øvrigt",1892,https://www.boligsiden.dk/adresse/weysesgade-25-2100-koebenhavn-oe-01018272__25_______,Weysesgade 25 2100 København Ø,Weysesgade 25 2100,136.0,55.71419969999999,12.5754493,København,Rækkehus
2019-10-22,2457500,"Solgt, Øvrigt",2014,https://www.boligsiden.dk/adresse/tom-kristensens-vej-53-2300-koebenhavn-s-01017547__53_______,Tom Kristensens Vej 53 2300 København S,Tom Kristensens Vej 53 2300,115.0,55.6605602,12.5850853,København,Rækkehus
2015-02-02,1825000,"Solgt, Familiehandel",2003,https://www.boligsiden.dk/adresse/lillegrund-79-2300-koebenhavn-s-01014272__79_______,Lillegrund 79 2300 København S,Lillegrund 79 2300,119.0,55.6585196,12.6127543,København,Rækkehus
2018-07-20,1320250,"Solgt, Familiehandel",1921,https://www.boligsiden.dk/adresse/vognborgvej-14-2400-koebenhavn-nv-01018408__14_______,Vognborgvej 14 2400 København NV,Vognborgvej 14 2400,172.0,55.6958138,12.510787,København,Rækkehus
2017-12-19,2677500,"Solgt, Familiehandel",1921,https://www.boligsiden.dk/adresse/vognborgvej-14-2400-koebenhavn-nv-01018408__14_______,Vognborgvej 14 2400 København NV,Vognborgvej 14 2400,172.0,55.6958138,12.510787,København,Rækkehus
2015-07-15,3195000,"Solgt, Øvrigt",1951,https://www.boligsiden.dk/adresse/kagsbro-19-2700-broenshoej-01013484__19_______,Kagsbro 19 2700 Brønshøj,Kagsbro 19 2700,80.0,55.717239,12.4620462,København,Rækkehus
2019-01-07,3978000,"Solgt, Familiehandel",1896,https://www.boligsiden.dk/adresse/heisesgade-36-2100-koebenhavn-oe-01012752__36_______,Heisesgade 36 2100 København Ø,Heisesgade 36 2100,194.0,55.71458459999999,12.5736519,København,Rækkehus
2018-12-21,1989000,"Solgt, Familiehandel",1896,https://www.boligsiden.dk/adresse/heisesgade-36-2100-koebenhavn-oe-01012752__36_______,Heisesgade 36 2100 København Ø,Heisesgade 36 2100,194.0,55.71458459999999,12.5736519,København,Rækkehus
2021-06-30,2350000,"Solgt, Familiehandel",1939,https://www.boligsiden.dk/adresse/vigerslev-alle-224-2500-valby-01018308_224_______,Vigerslev Allé 224 2500 Valby,Vigerslev Allé 224 2500,124.0,55.6576533,12.488401,København,Rækkehus
2022-03-28,9000000,"Solgt, Øvrigt",1887,https://www.boligsiden.dk/adresse/bissensgade-15-1773-koebenhavn-v-01010556__15_______,Bissensgade 15 1773 København V,Bissensgade 15 1773,137.0,55.6681403,12.5382719,København,Rækkehus
2018-10-09,3335000,"Solgt, Familiehandel",2012,https://www.boligsiden.dk/adresse/luftmarinegade-154-1432-koebenhavn-k-01011970_154_______,Luftmarinegade 154 1432 København K,Luftmarinegade 154 1432,137.0,55.6863282,12.6136112,København,Rækkehus
2021-02-02,1650000,"Solgt, Øvrigt",1936,https://www.boligsiden.dk/adresse/aertebjergvej-14-2700-broenshoej-01018524__14_______,Ærtebjergvej 14 2700 Brønshøj,Ærtebjergvej 14 2700,110.0,55.7133747,12.4718543,København,Rækkehus
2016-03-08,4300000,"Solgt, Familiehandel",1892,https://www.boligsiden.dk/adresse/weysesgade-26-2100-koebenhavn-oe-01018272__26_______,Weysesgade 26 2100 København Ø,Weysesgade 26 2100,136.0,55.7142466,12.575837,København,Rækkehus
2017-01-02,5900000,"Solgt, Familiehandel",1929,https://www.boligsiden.dk/adresse/hvidkildevej-105-2400-koebenhavn-nv-01013120_105_______,Hvidkildevej 105 2400 København NV,Hvidkildevej 105 2400,126.0,55.69774109999999,12.5176374,København,Rækkehus
2015-06-22,500000,"Solgt, Øvrigt",1875,https://www.boligsiden.dk/adresse/utterslevvej-21a-2400-koebenhavn-nv-01017884_21a_______,Utterslevvej 21A 2400 København NV,Utterslevvej 21A 2400,81.0,55.7098756,12.5155229,København,Rækkehus
2018-03-10,3405000,"Solgt, Familiehandel",2014,https://www.boligsiden.dk/adresse/amager-strandvej-150h-2300-koebenhavn-s-01010120150h_______,Amager Strandvej 150H 2300 København S,Amager Strandvej 150H 2300,122.0,55.6582953,12.6337182,København,Rækkehus
2016-04-29,3400000,"Solgt, Familiehandel",1891,https://www.boligsiden.dk/adresse/jerichausgade-17-1777-koebenhavn-v-01013396__17_______,Jerichausgade 17 1777 København V,Jerichausgade 17 1777,137.0,56.1547766,10.1953429,København,Rækkehus
